{"version": 0.6, "generator": "Overpass API 0.7.62.11 87bfad18", "osm3s": {"timestamp_osm_base": "2026-05-01T13:27:36Z", "copyright": "The data included in this document is from www.openstreetmap.org. The data is made available under ODbL."}, "elements": [{"type": "node", "id": 1697822274, "lat": 30.3179409, "lon": 78.0500178, "tags": {"amenity": "hospital", "emergency": "yes", "name": "Heart Clinic"}}, {"type": "node", "id": 1697822276, "lat": 30.319395, "lon": 78.0503182, "tags": {"amenity": "hospital", "emergency": "yes", "name": "General Hospital"}}, {"type": "node", "id": 1854105148, "lat": 30.3121892, "lon": 78.0474883, "tags": {"amenity": "hospital", "name": "CMI"}}, {"type": "node", "id": 2363357550, "lat": 30.0818937, "lon": 78.2862474}, {"type": "node", "id": 4129769756, "lat": 30.1068971, "lon": 78.2898977, "tags": {"amenity": "hospital", "healthcare": "hospital"}}, {"type": "node", "id": 4254504792, "lat": 30.3196005, "lon": 78.0422984, "tags": {"addr:district": "Dehradun", "addr:full": "Near Mkp Inter College", "addr:postcode": "248001", "addr:state": "Uttarakhand", "amenity": "hospital", "name": "Government Doon Hospital", "opening_hours": "Mo-Sa", "source": "OpenGovernmentData"}}, {"type": "node", "id": 4255814491, "lat": 30.3184253, "lon": 78.0424823, "tags": {"addr:city": "Dehradun", "addr:housenumber": "Shop No 28,", "addr:postcode": "248001", "addr:street": "Meedo Arcade Adjacent to Pine Hall School", "amenity": "hospital", "emergency": "yes", "healthcare:speciality": "wedding", "name": "wedding by fourth munky"}}, {"type": "node", "id": 6895578193, "lat": 30.0808844, "lon": 78.2861301, "tags": {"addr:city": "Rishikesh", "addr:full": "Virbhadra Marg, Pashulok", "addr:state": "Uttarakhand", "amenity": "hospital", "contact:phone": "0135-2462967", "email": "transfusionmedicineris@gmail.com", "healthcare": "hospital", "name": "AIIMS's Blood Bank Rishikesh", "operator:type": "government", "source": "OpenGovernmentData"}}, {"type": "node", "id": 6897688071, "lat": 30.0808782, "lon": 78.2864837, "tags": {"addr:city": "Rishikesh", "addr:district": "DEHRADUN", "addr:full": "Virbhadra Marg, Pashulok, Rishikesh", "addr:postcode": "249201", "addr:state": "Uttarakhand", "amenity": "hospital", "contact:phone": "1352462967", "healthcare": "hospital", "name": "AIIMS Blood Bank, Rishikesh", "opening_hours": "24/7", "operator:type": "government", "source": "OpenGovernmentData"}}, {"type": "node", "id": 6950253649, "lat": 30.2837296, "lon": 77.997745, "tags": {"addr:district": "Dehradun", "addr:full": "Turner Road, Clement Town, Dehra Dun", "addr:postcode": "248001", "addr:state": "Uttarakhand", "amenity": "clinic", "name": "Baunthiyal Nursing Home", "source": "OpenGovernmentData"}}, {"type": "node", "id": 6950590506, "lat": 30.304785, "lon": 78.0209032, "tags": {"addr:district": "Dehradun", "addr:full": "Patel Nagar", "addr:postcode": "248001", "addr:state": "Uttarakhand", "amenity": "hospital", "name": "Shri Mahant Indiresh Hospital", "source": "OpenGovernmentData"}}, {"type": "node", "id": 6950590512, "lat": 30.3189236, "lon": 78.0506355, "tags": {"addr:district": "Dehradun", "addr:full": "35/1, Ec Road", "addr:postcode": "248001", "addr:state": "Uttarakhand", "amenity": "clinic", "name": "Aadya heart care centre", "source": "OpenGovernmentData"}}, {"type": "node", "id": 6950590560, "lat": 30.1083146, "lon": 78.2957961}, {"type": "node", "id": 6950590561, "lat": 30.1087602, "lon": 78.2964258}, {"type": "node", "id": 6950590562, "lat": 30.1091424, "lon": 78.2960644}, {"type": "node", "id": 6950590563, "lat": 30.1086969, "lon": 78.2954346}, {"type": "node", "id": 6950590580, "lat": 30.2909374, "lon": 78.0498482, "tags": {"addr:district": "Dehradun", "addr:full": "Ashok Vihar Ajabpur , Haridwar By Pass Road Rispana Railway Crossing", "addr:postcode": "248001", "addr:state": "Uttarakhand", "amenity": "hospital", "name": "Surya Hospital, Dehradun", "source": "OpenGovernmentData"}}, {"type": "node", "id": 6950595594, "lat": 30.3068298, "lon": 78.0540472, "tags": {"addr:district": "Dehradun", "addr:full": "20 , Balbir Road", "addr:postcode": "248001", "addr:state": "Uttarakhand", "amenity": "hospital", "name": "Param Hospital, Dehradun", "source": "OpenGovernmentData"}}, {"type": "node", "id": 6950595609, "lat": 30.3108936, "lon": 78.0121377, "tags": {"addr:district": "Dehradun", "addr:full": "Navyug Enclave,Indirapuram, Milan Vihar, Phase II,G.M.S.Road", "addr:postcode": "248001", "addr:state": "Uttarakhand", "amenity": "clinic", "health_facility:type": "dispensary", "healthcare": "centre", "name": "CGHS Dispensary", "operator:type": "government", "source": "OpenGovernmentData"}}, {"type": "node", "id": 6950904473, "lat": 30.3163536, "lon": 78.054412, "tags": {"addr:district": "Dehradun", "addr:full": "22, Curzun ( Nehru Road) Near Convent School Avas Vikas Bhawan", "addr:postcode": "248001", "addr:state": "Uttarakhand", "amenity": "hospital", "name": "Yash Respiratory and Medical Disease Centre", "source": "OpenGovernmentData"}}, {"type": "node", "id": 6950999156, "lat": 30.2820388, "lon": 78.002518, "tags": {"addr:district": "Dehradun", "addr:full": "Mandir Marg,Turner Road,Clement Town", "addr:postcode": "248001", "addr:state": "Uttarakhand", "amenity": "hospital", "name": "Vaidya Chandra Prakash Cancer Research Foundation", "source": "OpenGovernmentData"}}, {"type": "node", "id": 6951951139, "lat": 30.1798225, "lon": 78.123208, "tags": {"addr:block": "Raipur", "addr:district": "Dehradun", "addr:full": "Doiwala", "addr:postcode": "248143", "addr:state": "Uttarakhand", "addr:subdistrict": "Dehradun", "amenity": "hospital", "description": "Community Health Centre", "healthcare": "centre", "name": "CHC Doiwala", "source": "OpenGovernmentData"}}, {"type": "node", "id": 6951960632, "lat": 30.318361, "lon": 78.0527356, "tags": {"addr:district": "Dehradun", "addr:full": "31/2-1, East Canal Road", "addr:postcode": "248001", "addr:state": "Uttarakhand", "amenity": "clinic", "name": "Chaurasia Nursing Home", "source": "OpenGovernmentData"}}, {"type": "node", "id": 6951986574, "lat": 30.3112213, "lon": 78.04785, "tags": {"addr:district": "Dehradun", "addr:full": "Govind Nagar,Race Course", "addr:postcode": "248001", "addr:state": "Uttarakhand", "amenity": "hospital", "name": "Guru Teg Bahadur Sahib Hospital", "source": "OpenGovernmentData"}}, {"type": "node", "id": 6951991798, "lat": 30.282846, "lon": 78.0685231, "tags": {"addr:district": "Dehradun", "addr:full": "Jogiwala,Haridwar Road", "addr:postcode": "248001", "addr:state": "Uttarakhand", "amenity": "hospital", "name": "Govind Hospital, Dehradun", "source": "OpenGovernmentData"}}, {"type": "node", "id": 6952010057, "lat": 30.3152514, "lon": 78.0436885, "tags": {"addr:district": "Dehradun", "addr:full": "2, Haridwar Road Dehradun", "addr:postcode": "248001", "addr:state": "Uttarakhand", "amenity": "clinic", "name": "Hari Ram Kohli Nursing Home", "source": "OpenGovernmentData"}}, {"type": "node", "id": 6952073470, "lat": 30.2875988, "lon": 78.0231428, "tags": {"addr:district": "Dehradun", "addr:full": "5, New Road", "addr:postcode": "248001", "addr:state": "Uttarakhand", "amenity": "hospital", "name": "Kala E.N.T And Laser Centre", "source": "OpenGovernmentData"}}, {"type": "node", "id": 6952110670, "lat": 30.2917978, "lon": 78.0508983, "tags": {"addr:district": "Dehradun", "addr:full": "Between Rispana Bridge & Railway Crossing , Main Haridwar Bypass Road, Near Home Guard Office", "addr:postcode": "248001", "addr:state": "Uttarakhand", "amenity": "hospital", "name": "Kanishk Surgical and Super Speciality Hospital", "source": "OpenGovernmentData"}}, {"type": "node", "id": 6952126174, "lat": 30.112052, "lon": 78.2939279}, {"type": "node", "id": 6952126175, "lat": 30.1119387, "lon": 78.2940214}, {"type": "node", "id": 6952126176, "lat": 30.1121382, "lon": 78.2943446}, {"type": "node", "id": 6952126177, "lat": 30.1122515, "lon": 78.2942511}, {"type": "node", "id": 6952128589, "lat": 30.2789269, "lon": 78.0012372, "tags": {"addr:district": "Dehradun", "addr:full": "Daulatram Enclave Turner Road, Clement Town , D. Dun", "addr:postcode": "248001", "addr:state": "Uttarakhand", "amenity": "clinic", "name": "Jeevan Jyoti Clinic", "source": "OpenGovernmentData"}}, {"type": "node", "id": 6952139077, "lat": 30.3143113, "lon": 78.0523923, "tags": {"addr:district": "Dehradun", "addr:full": "8 Inder Road", "addr:postcode": "248001", "addr:state": "Uttarakhand", "amenity": "hospital", "name": "Kamra`s Urinary and Surgical Diseasea Centre", "source": "OpenGovernmentData"}}, {"type": "node", "id": 6952161739, "lat": 30.098125, "lon": 78.2878004}, {"type": "node", "id": 6952161740, "lat": 30.0980117, "lon": 78.2880373}, {"type": "node", "id": 6952161741, "lat": 30.0981544, "lon": 78.2881285}, {"type": "node", "id": 6952161742, "lat": 30.0982677, "lon": 78.2878916}, {"type": "node", "id": 6953276707, "lat": 30.0802678, "lon": 78.2838857}, {"type": "node", "id": 6953276770, "lat": 30.3190186, "lon": 78.050673, "tags": {"addr:district": "Dehradun", "addr:full": "35/1, E.C. Road, Dehradun, Uttaranchal", "addr:postcode": "248001", "addr:state": "Uttarakhand", "amenity": "clinic", "name": "Rawal Nursing Home and Polyclinic", "source": "OpenGovernmentData"}}, {"type": "node", "id": 6953276771, "lat": 30.3184444, "lon": 78.0290544, "tags": {"addr:district": "Dehradun", "addr:full": "Saharanpur Chowk", "addr:postcode": "248001", "addr:state": "Uttarakhand", "amenity": "hospital", "healthcare": "hospital", "name": "Ashadeep Hospital", "source": "OpenGovernmentData"}}, {"type": "node", "id": 6953276776, "lat": 29.9892436, "lon": 78.192692, "tags": {"addr:district": "Haridwar", "addr:full": "Saptarishi Link Road", "addr:postcode": "249403", "addr:state": "Uttarakhand", "amenity": "hospital", "name": "Ganga Mata Charitable Eye Hospital and Research Institute", "source": "OpenGovernmentData"}}, {"type": "node", "id": 6953301797, "lat": 30.3153417, "lon": 78.0512014, "tags": {"addr:district": "Dehradun", "addr:full": "7,Inder Road", "addr:postcode": "248001", "addr:state": "Uttarakhand", "amenity": "hospital", "name": "Sharda Surgical and Urology Centre", "source": "OpenGovernmentData"}}, {"type": "node", "id": 6953552504, "lat": 30.310353, "lon": 78.0485205, "tags": {"addr:district": "Dehradun", "addr:full": "Araghar Chowk, 57, Hardwar Road", "addr:postcode": "248001", "addr:state": "Uttarakhand", "amenity": "hospital", "name": "Oli Eye Hospital", "source": "OpenGovernmentData"}}, {"type": "node", "id": 6953930189, "lat": 30.3175726, "lon": 78.0333661, "tags": {"addr:district": "Dehradun", "addr:full": "1 Darshani Gate", "addr:postcode": "248001", "addr:state": "Uttarakhand", "amenity": "hospital", "name": "Garg ENT and Dental Clinic", "source": "OpenGovernmentData"}}, {"type": "node", "id": 6953932199, "lat": 30.298808, "lon": 78.0512483, "tags": {"addr:district": "Dehradun", "addr:full": "94-Dharampur", "addr:postcode": "248001", "addr:state": "Uttarakhand", "amenity": "clinic", "name": "Rewati Nursing Home, Dehradun", "source": "OpenGovernmentData"}}, {"type": "node", "id": 6953935730, "lat": 30.3152005, "lon": 78.0513221, "tags": {"addr:district": "Dehradun", "addr:full": "No. 7, Inder Road, Dalanwala", "addr:postcode": "248001", "addr:state": "Uttarakhand", "amenity": "hospital", "name": "Renal Care and Dialysis Center", "source": "OpenGovernmentData"}}, {"type": "node", "id": 6953993347, "lat": 30.1141894, "lon": 78.2924974}, {"type": "node", "id": 6953993348, "lat": 30.1142628, "lon": 78.2923948}, {"type": "node", "id": 6953993349, "lat": 30.1144508, "lon": 78.2925745}, {"type": "node", "id": 6953993350, "lat": 30.1143773, "lon": 78.2926771}, {"type": "node", "id": 6954328851, "lat": 30.1119882, "lon": 78.2933834}, {"type": "node", "id": 6954328852, "lat": 30.1121154, "lon": 78.2935924}, {"type": "node", "id": 6954328853, "lat": 30.1120527, "lon": 78.2936433}, {"type": "node", "id": 6954328854, "lat": 30.1119255, "lon": 78.2934344}, {"type": "node", "id": 6954359357, "lat": 30.3101527, "lon": 78.0601144, "tags": {"addr:district": "Dehradun", "addr:full": "36 , Inder Road", "addr:postcode": "248001", "addr:state": "Uttarakhand", "amenity": "clinic", "name": "Suri Nursing Home, Dehradun", "source": "OpenGovernmentData"}}, {"type": "node", "id": 6954506663, "lat": 30.3125064, "lon": 78.0219506, "tags": {"addr:district": "Dehradun", "addr:full": "2,Guru Road", "addr:postcode": "248001", "addr:state": "Uttarakhand", "amenity": "hospital", "name": "Shivanjan Hospital", "source": "OpenGovernmentData"}}, {"type": "node", "id": 6954513193, "lat": 30.1773948, "lon": 78.1295487, "tags": {"addr:district": "Dehradun", "addr:full": "69 Rishikesh Road,Doiwala", "addr:postcode": "248140", "addr:state": "Uttarakhand", "amenity": "hospital", "name": "Shed Hospital", "source": "OpenGovernmentData"}}, {"type": "node", "id": 6954522231, "lat": 30.3029695, "lon": 78.0214584, "tags": {"addr:district": "Dehradun", "addr:full": "Shri Guru Ram Rai Institute of Medical and Health Sciences", "addr:postcode": "248001", "addr:state": "Uttarakhand", "amenity": "hospital", "email": "sgrr.mco@gmail.com; smi.hospital@gmail.com", "name": "SGRR Medical College hospital", "operator:type": "government", "source": "OpenGovernmentData"}}, {"type": "node", "id": 6955008110, "lat": 30.291169, "lon": 78.0579914, "tags": {"addr:district": "Dehradun", "addr:full": "11/1, Shastri Nagar, Ajabpur Kalan", "addr:postcode": "248001", "addr:state": "Uttarakhand", "amenity": "hospital", "name": "Ananda Hospital", "source": "OpenGovernmentData"}}, {"type": "node", "id": 6955029549, "lat": 30.2844836, "lon": 78.0645373, "tags": {"addr:district": "Dehradun", "addr:full": "142, Badripur Road, Jogiwala Chauk", "addr:postcode": "248005", "addr:state": "Uttarakhand", "amenity": "clinic", "name": "Asha Nursing Home", "source": "OpenGovernmentData"}}, {"type": "node", "id": 6956686313, "lat": 30.2983402, "lon": 78.0530977, "tags": {"addr:district": "Dehradun", "addr:full": "Nehru Colony , Haridwar Road(Near Lic Div.)", "addr:postcode": "248001", "addr:state": "Uttarakhand", "amenity": "hospital", "name": "Navjyoti Eye Hospital", "source": "OpenGovernmentData"}}, {"type": "node", "id": 6956686347, "lat": 30.2919587, "lon": 77.9986905, "tags": {"addr:district": "Dehradun", "addr:full": "Near Hilton School, Saharanpur Road, Majra Dehradun", "addr:postcode": "248001", "addr:state": "Uttarakhand", "amenity": "hospital", "name": "Minocha Hospital and Maternity Home", "source": "OpenGovernmentData"}}, {"type": "node", "id": 6956959648, "lat": 30.2936772, "lon": 78.0747955, "tags": {"addr:district": "Dehradun", "addr:full": "Indraprastha, Ring Road, Jogiwala, Dehradun, Uttarakhand", "addr:postcode": "248001", "addr:state": "Uttarakhand", "amenity": "clinic", "contact:phone": "0135 266 2933", "email": "nautiyalvijay3@gmail.com", "name": "Manya Dental Clinic", "source": "OpenGovernmentData", "website": "https://www.manyadental.com/"}}, {"type": "node", "id": 6957135466, "lat": 30.1078465, "lon": 78.3004913}, {"type": "node", "id": 6957135467, "lat": 30.1077444, "lon": 78.3005282}, {"type": "node", "id": 6957135468, "lat": 30.1076694, "lon": 78.3005753}, {"type": "node", "id": 6957135469, "lat": 30.1078069, "lon": 78.3006732}, {"type": "node", "id": 6957135470, "lat": 30.107872, "lon": 78.3005878}, {"type": "node", "id": 6957204721, "lat": 30.3119982, "lon": 78.0480015, "tags": {"addr:district": "Dehradun", "addr:full": "55, Hardwar Road", "addr:postcode": "248001", "addr:state": "Uttarakhand", "amenity": "hospital", "name": "Doon Valley Hospital", "source": "OpenGovernmentData"}}, {"type": "node", "id": 6957891041, "lat": 30.3183749, "lon": 78.0241728, "tags": {"addr:district": "Dehradun", "addr:full": "Pd, Tandon Marg, Laxman Chowk Dehradun", "addr:postcode": "248001", "addr:state": "Uttarakhand", "amenity": "hospital", "healthcare": "hospital", "name": "Prem Sukh B Hospital And Dailysis Centre", "source": "OpenGovernmentData"}}, {"type": "node", "id": 6957928419, "lat": 30.3204124, "lon": 78.0509493, "tags": {"addr:district": "Dehradun", "addr:full": "122/1 East Canal Road,Dalanwaal", "addr:postcode": "248001", "addr:state": "Uttarakhand", "amenity": "clinic", "name": "Amritsar Eye Clinic", "source": "OpenGovernmentData"}}, {"type": "node", "id": 6957991230, "lat": 30.295105, "lon": 78.053028, "tags": {"addr:district": "Dehradun", "addr:full": "98/18 Pragati Vihar, Near Rispana Bridge, Dharampur", "addr:postcode": "248001", "addr:state": "Uttarakhand", "amenity": "hospital", "email": "info@lifelinedun.in", "healthcare:speciality": "IVF and Infertility, Laparoscopic Surgery, Obstetrics and Gynaecology, Sexual Medicine, Urology", "name": "Lifeline Hospital and Urology Institute", "operator:type": "private", "source": "OpenGovernmentData"}}, {"type": "node", "id": 6958022164, "lat": 30.1043649, "lon": 78.303032}, {"type": "node", "id": 6958022165, "lat": 30.1043864, "lon": 78.3034309}, {"type": "node", "id": 6958022166, "lat": 30.1042435, "lon": 78.3032242}, {"type": "node", "id": 6958022167, "lat": 30.1044219, "lon": 78.3033748}, {"type": "node", "id": 6958022168, "lat": 30.1044874, "lon": 78.3035162}, {"type": "node", "id": 6958022169, "lat": 30.1046443, "lon": 78.3032679}, {"type": "node", "id": 6958096955, "lat": 30.308365, "lon": 78.0491656, "tags": {"addr:district": "Dehradun", "addr:full": "230, Model Colony, Dr, Rn Singh Lane, Araghar, Hardwar Road", "addr:postcode": "248003", "addr:state": "Uttarakhand", "amenity": "hospital", "name": "Singh Eye Clinic and Hospital", "source": "OpenGovernmentData", "website": "https://eyeqindia.com/"}}, {"type": "node", "id": 7121752304, "lat": 30.311503, "lon": 77.982168, "tags": {"addr:block": "Raipur", "addr:district": "Dehradun", "addr:full": "Mehuwala", "addr:postcode": "248146", "addr:state": "Uttarakhand", "amenity": "hospital", "description": "Governnment Hospital", "name": "Government Hospital Mehuwala", "source": "OpenGovernmentData"}}, {"type": "node", "id": 7479937221, "lat": 30.3193454, "lon": 78.0433909, "tags": {"addr:district": "Dehradun", "addr:full": "5, New Road, Opposite Mkp College, Race Course", "addr:postcode": "248001", "addr:state": "Uttarakhand", "amenity": "clinic", "name": "Dr. Kala ENT Centre", "source": "Local Knowledge"}}, {"type": "node", "id": 7479937227, "lat": 30.3191611, "lon": 78.0430172, "tags": {"addr:district": "Dehradun", "addr:full": "6, New Road, Near Doon Hospital, Race Course", "addr:postcode": "248001", "addr:state": "Uttarakhand", "amenity": "hospital", "name": "Aarogyadham Super Speciality Hospital", "source": "Local Knowledge"}}, {"type": "node", "id": 7479937229, "lat": 30.2686878, "lon": 78.0787419, "tags": {"addr:district": "Dehradun", "addr:full": "Main Road, Tilak Nagar, Mohkampur, Mohkam Pur Kala", "addr:postcode": "248005", "addr:state": "Uttarakhand", "amenity": "hospital", "name": "Ghavle Hospital", "source": "Local Knowledge"}}, {"type": "node", "id": 7479937253, "lat": 30.2633849, "lon": 78.0946875, "tags": {"addr:district": "Dehradun", "addr:full": "Mili Complex, Near Balawala Railway Crossing, Gullarghati Road, Miyawala", "addr:postcode": "248008", "addr:state": "Uttarakhand", "amenity": "clinic", "name": "Apex Super-Speciality Eye Care", "source": "Local Knowledge"}}, {"type": "node", "id": 7479937256, "lat": 30.3167914, "lon": 78.0437622, "tags": {"addr:district": "Dehradun", "addr:full": "54, Haridwar Road, Guru Nanak Vihar, Race Course, Dehradun", "addr:postcode": "248001", "addr:state": "Uttarakhand", "amenity": "hospital", "name": "CMI Hospital", "source": "Local Knowledge"}}, {"type": "node", "id": 7479937262, "lat": 30.2713518, "lon": 78.0807579, "tags": {"addr:district": "Dehradun", "addr:full": "Garh Vihar Phase 2, Mohkampur, Kala", "addr:postcode": "248005", "addr:state": "Uttarakhand", "amenity": "hospital", "name": "Doon Public Hospital", "source": "Local Knowledge"}}, {"type": "node", "id": 7479937263, "lat": 30.3192081, "lon": 78.0460002, "tags": {"addr:district": "Dehradun", "addr:full": "Kaveri Departmental Store, 33, Subhash Road, Opposite. Race Course", "addr:postcode": "248001", "addr:state": "Uttarakhand", "amenity": "clinic", "name": "Pathak Urology & Stone Clinic", "source": "Local Knowledge"}}, {"type": "node", "id": 7479937270, "lat": 30.311589, "lon": 78.048034, "tags": {"addr:district": "Dehradun", "addr:full": "Shop No:55, Haridwar Road, Guru Nanak Vihar, Dehradun", "addr:postcode": "248001", "addr:state": "Uttarakhand", "amenity": "clinic", "name": "Dr. Rakesh ENT Clinic", "source": "Local Knowledge"}}, {"type": "node", "id": 7479937276, "lat": 30.3044925, "lon": 78.0509177, "tags": {"addr:district": "Dehradun", "addr:full": "Phase 2, 68/1, 111, Dharampur Road, Old Nehru Colony, Dharampur", "addr:postcode": "248001", "addr:state": "Uttarakhand", "amenity": "clinic", "name": "Gaur Ortho And Gynae Clinic", "source": "Local Knowledge"}}, {"type": "node", "id": 7479937278, "lat": 30.2570338, "lon": 78.0909295, "tags": {"addr:district": "Dehradun", "addr:full": "Harrawala", "addr:postcode": "248005", "addr:state": "Uttarakhand", "amenity": "clinic", "name": "Bright Smile Multispeciality Dental Clinic", "source": "Local Knowledge"}}, {"type": "node", "id": 7479937280, "lat": 30.288311, "lon": 78.064203, "tags": {"addr:district": "Dehradun", "addr:full": "Main, Haridwar Road, Jogiwala, Chowk", "addr:postcode": "248001", "addr:state": "Uttarakhand", "amenity": "hospital", "name": "Kailash Hospital, Dehradun", "source": "Local Knowledge"}}, {"type": "node", "id": 7479937283, "lat": 30.2811131, "lon": 78.0712299, "tags": {"addr:district": "Dehradun", "addr:full": "Mohkampur, Dehradun", "addr:postcode": "248005", "addr:state": "Uttarakhand", "amenity": "hospital", "name": "Nethra Jovan Eyes Hospital", "source": "Local Knowledge"}}, {"type": "node", "id": 7479937286, "lat": 30.3174427, "lon": 78.046923, "tags": {"addr:district": "Dehradun", "addr:full": "17-C, New Road, Near Mkp College, Race Course", "addr:postcode": "248001", "addr:state": "Uttarakhand", "amenity": "hospital", "name": "Dr. Ajay Sharma Hospital", "source": "Local Knowledge"}}, {"type": "node", "id": 7479937303, "lat": 30.3196861, "lon": 78.0503125, "tags": {"addr:district": "Dehradun", "addr:full": "17, Cross Road, Race Course, Dehradun", "addr:postcode": "248001", "addr:state": "Uttarakhand", "amenity": "hospital", "name": "City Heart Centre", "source": "Local Knowledge"}}, {"type": "node", "id": 7479937310, "lat": 30.310123, "lon": 78.045445, "tags": {"addr:district": "Dehradun", "addr:full": "20, Balbir Road, Near Dena Bank, Dalanwala, Dehradun", "addr:postcode": "248001", "addr:state": "Uttarakhand", "amenity": "hospital", "name": "Param Hospital", "source": "Local Knowledge"}}, {"type": "node", "id": 7479937323, "lat": 30.320661, "lon": 78.057667, "tags": {"addr:district": "Dehradun", "addr:full": "2nd Floor, Coronation Hospital, Curzon Road, Dalanwala, Dehradun", "addr:postcode": "248001", "addr:state": "Uttarakhand", "amenity": "hospital", "name": "Fortis Escorts Hospital, Dehradun", "source": "Local Knowledge"}}, {"type": "node", "id": 7704040250, "lat": 30.0752219, "lon": 78.2794225}, {"type": "node", "id": 7704040251, "lat": 30.0756072, "lon": 78.279857}, {"type": "node", "id": 7704040252, "lat": 30.0761642, "lon": 78.2800662}, {"type": "node", "id": 7704040253, "lat": 30.0762478, "lon": 78.2803559}, {"type": "node", "id": 7704040254, "lat": 30.0768745, "lon": 78.2806402}, {"type": "node", "id": 7704040255, "lat": 30.0777008, "lon": 78.2810372}, {"type": "node", "id": 7704040256, "lat": 30.0777379, "lon": 78.2812947}, {"type": "node", "id": 7704040257, "lat": 30.0782532, "lon": 78.2818097}, {"type": "node", "id": 7704040258, "lat": 30.0785642, "lon": 78.2819116}, {"type": "node", "id": 7704040259, "lat": 30.0788752, "lon": 78.2826948}, {"type": "node", "id": 7704040260, "lat": 30.0791909, "lon": 78.2831454}, {"type": "node", "id": 7704040261, "lat": 30.0804024, "lon": 78.2839125}, {"type": "node", "id": 7704040262, "lat": 30.0807877, "lon": 78.2838857}, {"type": "node", "id": 7704040263, "lat": 30.0820036, "lon": 78.2851144}, {"type": "node", "id": 7704040264, "lat": 30.0820471, "lon": 78.2852713}, {"type": "node", "id": 7704040265, "lat": 30.0818488, "lon": 78.2863619}, {"type": "node", "id": 7704040266, "lat": 30.0817662, "lon": 78.2872696}, {"type": "node", "id": 7704040267, "lat": 30.0816261, "lon": 78.2879339}, {"type": "node", "id": 7704040268, "lat": 30.0813501, "lon": 78.2886421}, {"type": "node", "id": 7704040269, "lat": 30.0807564, "lon": 78.2885481}, {"type": "node", "id": 7704040270, "lat": 30.0806833, "lon": 78.2884185}, {"type": "node", "id": 7704040271, "lat": 30.0805373, "lon": 78.2883639}, {"type": "node", "id": 7704040272, "lat": 30.0804071, "lon": 78.2884133}, {"type": "node", "id": 7704040273, "lat": 30.076401, "lon": 78.2863373}, {"type": "node", "id": 7704040274, "lat": 30.0753148, "lon": 78.2857627}, {"type": "node", "id": 7704040275, "lat": 30.0752535, "lon": 78.285379}, {"type": "node", "id": 7704040276, "lat": 30.0750778, "lon": 78.2838773}, {"type": "node", "id": 7704040277, "lat": 30.0742092, "lon": 78.2820445}, {"type": "node", "id": 7704040278, "lat": 30.0739387, "lon": 78.2795549}, {"type": "node", "id": 8818519318, "lat": 30.3206193, "lon": 78.0417924, "tags": {"addr:postcode": "248001", "addr:street": "Nardev Shastri Marg", "amenity": "hospital", "email": "artdoon@gmail.com", "name": "\u090f.\u0906\u0930.\u091f\u0940. \u092a\u094d\u0932\u0938 \u0915\u0947\u0902\u0926\u094d\u0930", "name:en": "ART Plus Centre", "phone": "0135-2655529"}}, {"type": "node", "id": 9076882981, "lat": 30.1894454, "lon": 78.16631}, {"type": "node", "id": 9076882982, "lat": 30.1908609, "lon": 78.1650183}, {"type": "node", "id": 9076882983, "lat": 30.1902025, "lon": 78.1640929}, {"type": "node", "id": 9076882984, "lat": 30.1906754, "lon": 78.1636959}, {"type": "node", "id": 9076882985, "lat": 30.1941138, "lon": 78.161672}, {"type": "node", "id": 9076882986, "lat": 30.1965466, "lon": 78.1658015}, {"type": "node", "id": 9076882987, "lat": 30.1966219, "lon": 78.1660871}, {"type": "node", "id": 9076882988, "lat": 30.195506, "lon": 78.1669969}, {"type": "node", "id": 9076882989, "lat": 30.1947001, "lon": 78.165729}, {"type": "node", "id": 9076882990, "lat": 30.1958725, "lon": 78.1645344}, {"type": "node", "id": 9385639317, "lat": 30.3206591, "lon": 78.0418042, "tags": {"amenity": "hospital", "name": "ART Plus Centre Doon Hospital"}}, {"type": "node", "id": 9996583043, "lat": 30.0806388, "lon": 78.2884019}, {"type": "node", "id": 9996583054, "lat": 30.0752886, "lon": 78.2853239}, {"type": "node", "id": 9996583055, "lat": 30.0741612, "lon": 78.2818443}, {"type": "node", "id": 9996583056, "lat": 30.0741091, "lon": 78.2802322}, {"type": "node", "id": 9996583057, "lat": 30.0740381, "lon": 78.2802018}, {"type": "node", "id": 9996583058, "lat": 30.0775863, "lon": 78.2810058}, {"type": "node", "id": 9996583067, "lat": 30.0805656, "lon": 78.2883745}, {"type": "node", "id": 9996728106, "lat": 30.1930713, "lon": 78.1622211}, {"type": "node", "id": 9996728107, "lat": 30.192236, "lon": 78.1626816}, {"type": "node", "id": 9996728108, "lat": 30.1948691, "lon": 78.1630503}, {"type": "node", "id": 10012603021, "lat": 30.1088429, "lon": 78.2927184, "tags": {"amenity": "clinic", "healthcare": "clinic", "name": "Krishna Medical Centre"}}, {"type": "node", "id": 10026306144, "lat": 30.1899832, "lon": 78.1696747}, {"type": "node", "id": 10841438208, "lat": 30.3091025, "lon": 78.0431496, "tags": {"addr:city": "Dehradun", "addr:postcode": "248001", "addr:street": "Near Indain Oil Petrol Pump, Malsi,", "amenity": "clinic", "healthcare": "clinic", "healthcare:speciality": "joint_replacement", "name": "Dr Vineet Tyagi Clinic", "operator": "Novosalus", "operator:type": "private"}}, {"type": "node", "id": 11778269180, "lat": 30.2994218, "lon": 78.0520814, "tags": {"addr:street": "Haridwar Road", "amenity": "hospital", "name": "Dr. Vineet Kala"}}, {"type": "node", "id": 11860290763, "lat": 30.0903364, "lon": 78.2736127, "tags": {"amenity": "hospital", "name": "Rana eye center"}}, {"type": "node", "id": 11860352788, "lat": 30.0987913, "lon": 78.2884113, "tags": {"amenity": "hospital", "name": "Neeraj epilepsy clinic"}}, {"type": "node", "id": 11929767034, "lat": 30.2864273, "lon": 78.0480676, "tags": {"addr:city": "Dehradun,", "addr:district": "Uttarakhand", "addr:housenumber": "16", "addr:postcode": "248010", "addr:street": "Deepnagar colony", "amenity": "hospital", "healthcare": "hospital", "name": "Medical Store"}}, {"type": "node", "id": 12049320442, "lat": 30.0691971, "lon": 78.2771924, "tags": {"amenity": "hospital", "name": "Seema dental college and hospital"}}, {"type": "node", "id": 12468580674, "lat": 30.3070576, "lon": 78.0095762, "tags": {"addr:city": "Kaonli", "addr:district": "Dehradun", "addr:housenumber": "1", "addr:postcode": "248001", "addr:street": "GMS Rd, Mohit Vihar, Shakti Enclave", "amenity": "clinic", "healthcare": "clinic", "healthcare:speciality": "radiology", "name": "GMS Mangal Clinic & Diagnostics", "operator": "Novosalus Technology", "operator:type": "private"}}, {"type": "node", "id": 12618381951, "lat": 30.0819352, "lon": 78.285803}, {"type": "node", "id": 12942911749, "lat": 30.2694327, "lon": 77.9972355}, {"type": "node", "id": 12942911750, "lat": 30.2697535, "lon": 77.9969428}, {"type": "node", "id": 12942911751, "lat": 30.2702633, "lon": 77.9976023}, {"type": "node", "id": 12942911752, "lat": 30.2699615, "lon": 77.9979297}, {"type": "node", "id": 13270710643, "lat": 30.3177538, "lon": 78.0343032, "tags": {"amenity": "pharmacy", "name": "Sanjay medical"}}, {"type": "node", "id": 13270712641, "lat": 30.3141093, "lon": 78.0340244, "tags": {"amenity": "pharmacy"}}, {"type": "node", "id": 13506691110, "lat": 30.2963681, "lon": 78.0557992, "tags": {"addr:city": "Dehradun", "addr:district": "Dehradun", "addr:housenumber": "197,", "addr:postcode": "248001", "addr:street": "Haridwar Road, Near Rispana Bridge", "amenity": "hospital", "contact:facebook": "https://www.facebook.com/p/Panacea-Hospital-Dehradun-100092607985448/", "email": "doonpanaceahospital@gmail.com", "emergency": "yes", "healthcare": "hospital", "healthcare:speciality": "general;internal;gynaecology;orthopaedics;surgery;neurosurgery;neurology;urology;paediatrics", "internet_access:fee": "no", "mobile": "+918630070909", "name": "Panacea Super Speciality Hospital Dehradun", "name:hi": "\u092a\u0948\u0928\u093e\u0938\u093f\u092f\u093e \u0939\u0949\u0938\u094d\u092a\u093f\u091f\u0932, \u0926\u0947\u0939\u0930\u093e\u0926\u0942\u0928", "opening_hours": "24/7"}}, {"type": "way", "id": 742423053, "nodes": [6950590560, 6950590563, 6950590562, 6950590561, 6950590560], "tags": {"addr:block": "Doiwala", "addr:district": "Dehradun", "addr:full": "Rishikesh Dehradun Road, Rishikesh", "addr:postcode": "249201", "addr:state": "Uttarakhand", "addr:subdistrict": "Rishikesh", "amenity": "hospital", "building": "yes", "description": "Government Hospital", "healthcare": "hospital", "name": "S.P.S Government Hospital Rishikesh", "source": "OpenGovernmentData"}}, {"type": "way", "id": 742630681, "nodes": [6952126174, 6952126177, 6952126176, 6952126175, 6952126174], "tags": {"addr:district": "Dehradun", "addr:full": "36, Dehradhun Road, OppositePetrol Pump, Rishikesh", "addr:postcode": "249201", "addr:state": "Uttarakhand", "amenity": "hospital", "building": "yes", "healthcare": "hospital", "name": "Joshi Surgicial and Maternity Center", "source": "OpenGovernmentData"}}, {"type": "way", "id": 742634686, "nodes": [6952161739, 6952161742, 6952161741, 6952161740, 6952161739], "tags": {"addr:district": "Dehradun", "addr:full": "288 , Haridwar Road ,Rishikesh", "addr:postcode": "249201", "addr:state": "Uttarakhand", "amenity": "hospital", "building": "yes", "healthcare": "hospital", "healthcare:speciality": "maternity", "name": "Bharadwaj Hospital and Maternity Home", "source": "OpenGovernmentData"}}, {"type": "way", "id": 742849500, "nodes": [6953993347, 6953993348, 6953993349, 6953993350, 6953993347], "tags": {"addr:district": "Dehradun", "addr:full": "Opposite Rama Palace, Dehradun Road", "addr:postcode": "249201", "addr:state": "Uttarakhand", "amenity": "hospital", "building": "yes", "healthcare": "hospital", "name": "Puri Sanjivani Hospital", "source": "OpenGovernmentData"}}, {"type": "way", "id": 742885990, "nodes": [6954328851, 6954328852, 6954328853, 6954328854, 6954328851], "tags": {"addr:district": "Dehradun", "addr:full": "104/14, Dehradhun Road, Rishikesh", "addr:postcode": "249201", "addr:state": "Uttarakhand", "amenity": "hospital", "building": "yes", "healthcare": "hospital", "name": "Dashmesh Hospital and Sandhu Surgicial Center", "source": "OpenGovernmentData"}}, {"type": "way", "id": 743251353, "nodes": [6957135466, 6957135470, 6957135469, 6957135468, 6957135467, 6957135466], "tags": {"addr:district": "Dehradun", "addr:full": "Tilak Road,Near Nagar Palika", "addr:postcode": "249201", "addr:state": "Uttarakhand", "amenity": "hospital", "building": "yes", "healthcare": "hospital", "name": "Sri Krishna Sewa Ashram Hospital", "source": "OpenGovernmentData"}}, {"type": "way", "id": 743357867, "nodes": [6958022164, 6958022169, 6958022168, 6958022165, 6958022167, 6958022166, 6958022164], "tags": {"addr:district": "Dehradun", "addr:full": "Mayakund Rishikesh", "addr:postcode": "249201", "addr:state": "Uttarakhand", "amenity": "hospital", "building": "yes", "healthcare": "hospital", "name": "Nirmal Ashram Hospital", "source": "OpenGovernmentData"}}, {"type": "way", "id": 825078065, "nodes": [7704040278, 9996583057, 9996583056, 9996583055, 7704040277, 7704040276, 9996583054, 7704040275, 7704040274, 7704040273, 7704040272, 7704040271, 9996583067, 9996583043, 7704040270, 7704040269, 7704040268, 7704040267, 7704040266, 7704040265, 2363357550, 12618381951, 7704040264, 7704040263, 7704040262, 7704040261, 6953276707, 7704040260, 7704040259, 7704040258, 7704040257, 7704040256, 7704040255, 9996583058, 7704040254, 7704040253, 7704040252, 7704040251, 7704040250, 7704040278], "tags": {"addr:district": "Dehradun", "addr:full": "Near Bairraj Lake, Shivaji Nagar, Veerbhadra, Rishikesh", "addr:postcode": "249202", "addr:state": "Uttarakhand", "addr:subdistrict": "Dehradun", "alt_name": "AIIMS Rishikesh", "amenity": "hospital", "contact:phone": "0135-2462940", "description": "Medical Colleges Hospital", "email": "info@aiimsrishikesh.edu.in", "healthcare": "hospital", "name": "All India Institute of Medical Sciences, Rishikesh", "operator:type": "government", "phone": "+91 135 2462 503", "source": "OpenGovernmentData", "website": "https://aiimsrishikesh.edu.in/a1_1/", "wikidata": "Q15177603", "wikipedia": "en:All India Institute of Medical Sciences, Rishikesh"}}, {"type": "way", "id": 981252583, "nodes": [9076882990, 9996728108, 9076882985, 9996728106, 9996728107, 9076882984, 9076882983, 9076882982, 9076882981, 10026306144, 9076882989, 9076882990], "tags": {"addr:district": "Dehradun", "addr:full": "Swami Ram Nagar, P.O. Doiwala", "addr:postcode": "248140", "addr:state": "Uttarakhand", "amenity": "hospital", "healthcare": "hospital", "name": "Himalayan Institute Hospital Trust", "source": "OpenGovernmentData"}}, {"type": "way", "id": 981252584, "nodes": [9076882990, 9076882989, 9076882988, 9076882987, 9076882986, 9076882990], "tags": {"amenity": "hospital", "healthcare": "hospital"}}, {"type": "way", "id": 1408335029, "nodes": [12942911749, 12942911750, 12942911751, 12942911752, 12942911749], "tags": {"amenity": "hospital", "healthcare": "hospital", "name": "St. Paul Hospital"}}]}